[{"category":"anti-social-behaviour","location_type":"Force","location":{"latitude":"51.516061","street":{"id":957059,"name":"On or near London Mews"},"longitude":"-0.174139"},"context":"","outcome_status":null,"persistent_id":"","id":47900860,"location_subtype":"","month":"2016-03"},{"category":"anti-social-behaviour","location_type":"Force","location":{"latitude":"51.543632","street":{"id":964647,"name":"On or near Conistone Way"},"longitude":"-0.120599"},"context":"","outcome_status":null,"persistent_id":"","id":47889162,"location_subtype":"","month":"2016-03"},{"category":"anti-social-behaviour","location_type":"Force","location":{"latitude":"51.521789","street":{"id":960469,"name":"On or near Bendall Mews"},"longitude":"-0.165492"},"context":"","outcome_status":null,"persistent_id":"","id":47902960,"location_subtype":"","month":"2016-03"},{"category":"anti-social-behaviour","location_type":"Force","location":{"latitude":"51.547113","street":{"id":968141,"name":"On or near Drovers Way"},"longitude":"-0.125705"},"context":"","outcome_status":null,"persistent_id":"","id":47889212,"location_subtype":"","month":"2016-03"},{"category":"anti-social-behaviour","location_type":"Force","location":{"latitude":"51.516061","street":{"id":957059,"name":"On or near London Mews"},"longitude":"-0.174139"},"context":"","outcome_status":null,"persistent_id":"","id":47900844,"location_subtype":"","month":"2016-03"},{"category":"anti-social-behaviour","location_type":"Force","location":{"latitude":"51.521789","street":{"id":960469,"name":"On or near Bendall Mews"},"longitude":"-0.165492"},"context":"","outcome_status":null,"persistent_id":"","id":47902957,"location_subtype":"","month":"2016-03"},{"category":"anti-social-behaviour","location_type":"Force","location":{"latitude":"51.521789","street":{"id":960469,"name":"On or near Bendall Mews"},"longitude":"-0.165492"},"context":"","outcome_status":null,"persistent_id":"","id":47902955,"location_subtype":"","month":"2016-03"},{"category":"anti-social-behaviour","location_type":"Force","location":{"latitude":"51.519431","street":{"id":960452,"name":"On or near Homer Street"},"longitude":"-0.164794"},"context":"","outcome_status":null,"persistent_id":"","id":47902952,"location_subtype":"","month":"2016-03"},{"category":"anti-social-behaviour","location_type":"Force","location":{"latitude":"51.515241","street":{"id":957069,"name":"On or near Conduit Place"},"longitude":"-0.175210"},"context":"","outcome_status":null,"persistent_id":"","id":47900863,"location_subtype":"","month":"2016-03"},{"category":"anti-social-behaviour","location_type":"Force","location":{"latitude":"51.522924","street":{"id":960409,"name":"On or near Harewood Avenue"},"longitude":"-0.164452"},"context":"","outcome_status":null,"persistent_id":"","id":47902950,"location_subtype":"","month":"2016-03"},{"category":"anti-social-behaviour","location_type":"Force","location":{"latitude":"51.548284","street":{"id":968233,"name":"On or near Watkinson Road"},"longitude":"-0.116844"},"context":"","outcome_status":null,"persistent_id":"","id":47889027,"location_subtype":"","month":"2016-03"},{"category":"anti-social-behaviour","location_type":"Force","location":{"latitude":"51.522027","street":{"id":960408,"name":"On or near Harewood Row"},"longitude":"-0.164012"},"context":"","outcome_status":null,"persistent_id":"","id":47902938,"location_subtype":"","month":"2016-03"},{"category":"anti-social-behaviour","location_type":"Force","location":{"latitude":"51.544773","street":{"id":964621,"name":"On or near The Drive"},"longitude":"-0.117754"},"context":"","outcome_status":null,"persistent_id":"","id":47889053,"location_subtype":"","month":"2016-03"},{"category":"anti-social-behaviour","location_type":"Force","location":{"latitude":"51.522027","street":{"id":960408,"name":"On or near Harewood Row"},"longitude":"-0.164012"},"context":"","outcome_status":null,"persistent_id":"","id":47902937,"location_subtype":"","month":"2016-03"},{"category":"anti-social-behaviour","location_type":"Force","location":{"latitude":"51.544773","street":{"id":964621,"name":"On or near The Drive"},"longitude":"-0.117754"},"context":"","outcome_status":null,"persistent_id":"","id":47889055,"location_subtype":"","month":"2016-03"},{"category":"anti-social-behaviour","location_type":"Force","location":{"latitude":"51.550575","street":{"id":968259,"name":"On or near Stock Orchard Street"},"longitude":"-0.117298"},"context":"","outcome_status":null,"persistent_id":"","id":47889058,"location_subtype":"","month":"2016-03"},{"category":"anti-social-behaviour","location_type":"Force","location":{"latitude":"51.522027","street":{"id":960408,"name":"On or near Harewood Row"},"longitude":"-0.164012"},"context":"","outcome_status":null,"persistent_id":"","id":47902936,"location_subtype":"","month":"2016-03"},{"category":"anti-social-behaviour","location_type":"Force","location":{"latitude":"51.522027","street":{"id":960408,"name":"On or near Harewood Row"},"longitude":"-0.164012"},"context":"","outcome_status":null,"persistent_id":"","id":47902934,"location_subtype":"","month":"2016-03"},{"category":"anti-social-behaviour","location_type":"Force","location":{"latitude":"51.522027","street":{"id":960408,"name":"On or near Harewood Row"},"longitude":"-0.164012"},"context":"","outcome_status":null,"persistent_id":"","id":47902932,"location_subtype":"","month":"2016-03"},{"category":"anti-social-behaviour","location_type":"Force","location":{"latitude":"51.503087","street":{"id":952739,"name":"On or near Hornton Street"},"longitude":"-0.195161"},"context":"","outcome_status":null,"persistent_id":"","id":47902168,"location_subtype":"","month":"2016-03"},{"category":"anti-social-behaviour","location_type":"Force","location":{"latitude":"51.515957","street":{"id":957058,"name":"On or near London Street"},"longitude":"-0.174979"},"context":"","outcome_status":null,"persistent_id":"","id":47900865,"location_subtype":"","month":"2016-03"},{"category":"anti-social-behaviour","location_type":"Force","location":{"latitude":"51.515957","street":{"id":957058,"name":"On or near London Street"},"longitude":"-0.174979"},"context":"","outcome_status":null,"persistent_id":"","id":47900868,"location_subtype":"","month":"2016-03"},{"category":"anti-social-behaviour","location_type":"Force","location":{"latitude":"51.503087","street":{"id":952739,"name":"On or near Hornton Street"},"longitude":"-0.195161"},"context":"","outcome_status":null,"persistent_id":"","id":47902166,"location_subtype":"","month":"2016-03"},{"category":"anti-social-behaviour","location_type":"Force","location":{"latitude":"51.552415","street":{"id":968258,"name":"On or near Sturmer Way"},"longitude":"-0.117669"},"context":"","outcome_status":null,"persistent_id":"","id":47889084,"location_subtype":"","month":"2016-03"},{"category":"anti-social-behaviour","location_type":"Force","location":{"latitude":"51.547051","street":{"id":968137,"name":"On or near York Way"},"longitude":"-0.126919"},"context":"","outcome_status":null,"persistent_id":"","id":47889239,"location_subtype":"","month":"2016-03"},{"category":"anti-social-behaviour","location_type":"Force","location":{"latitude":"51.503087","street":{"id":952739,"name":"On or near Hornton Street"},"longitude":"-0.195161"},"context":"","outcome_status":null,"persistent_id":"","id":47902162,"location_subtype":"","month":"2016-03"},{"category":"anti-social-behaviour","location_type":"Force","location":{"latitude":"51.520774","street":{"id":960463,"name":"On or near Cosway Street"},"longitude":"-0.165533"},"context":"","outcome_status":null,"persistent_id":"","id":47902930,"location_subtype":"","month":"2016-03"},{"category":"anti-social-behaviour","location_type":"Force","location":{"latitude":"51.515957","street":{"id":957058,"name":"On or near London Street"},"longitude":"-0.174979"},"context":"","outcome_status":null,"persistent_id":"","id":47900871,"location_subtype":"","month":"2016-03"},{"category":"anti-social-behaviour","location_type":"Force","location":{"latitude":"51.520774","street":{"id":960463,"name":"On or near Cosway Street"},"longitude":"-0.165533"},"context":"","outcome_status":null,"persistent_id":"","id":47902927,"location_subtype":"","month":"2016-03"},{"category":"anti-social-behaviour","location_type":"Force","location":{"latitude":"51.522325","street":{"id":960399,"name":"On or near Melcombe Place"},"longitude":"-0.162357"},"context":"","outcome_status":null,"persistent_id":"","id":47902920,"location_subtype":"","month":"2016-03"},{"category":"anti-social-behaviour","location_type":"Force","location":{"latitude":"51.519404","street":{"id":960434,"name":"On or near Parking Area"},"longitude":"-0.162460"},"context":"","outcome_status":null,"persistent_id":"","id":47902917,"location_subtype":"","month":"2016-03"},{"category":"anti-social-behaviour","location_type":"Force","location":{"latitude":"51.547051","street":{"id":968137,"name":"On or near York Way"},"longitude":"-0.126919"},"context":"","outcome_status":null,"persistent_id":"","id":47889242,"location_subtype":"","month":"2016-03"},{"category":"anti-social-behaviour","location_type":"Force","location":{"latitude":"51.519404","street":{"id":960434,"name":"On or near Parking Area"},"longitude":"-0.162460"},"context":"","outcome_status":null,"persistent_id":"","id":47902914,"location_subtype":"","month":"2016-03"},{"category":"anti-social-behaviour","location_type":"Force","location":{"latitude":"51.519617","street":{"id":960444,"name":"On or near Tarrant Place"},"longitude":"-0.162293"},"context":"","outcome_status":null,"persistent_id":"","id":47902912,"location_subtype":"","month":"2016-03"},{"category":"anti-social-behaviour","location_type":"Force","location":{"latitude":"51.521855","street":{"id":960456,"name":"On or near Great Central Street"},"longitude":"-0.162203"},"context":"","outcome_status":null,"persistent_id":"","id":47902899,"location_subtype":"","month":"2016-03"},{"category":"anti-social-behaviour","location_type":"Force","location":{"latitude":"51.515957","street":{"id":957058,"name":"On or near London Street"},"longitude":"-0.174979"},"context":"","outcome_status":null,"persistent_id":"","id":47900873,"location_subtype":"","month":"2016-03"},{"category":"anti-social-behaviour","location_type":"Force","location":{"latitude":"51.515957","street":{"id":957058,"name":"On or near London Street"},"longitude":"-0.174979"},"context":"","outcome_status":null,"persistent_id":"","id":47900876,"location_subtype":"","month":"2016-03"},{"category":"anti-social-behaviour","location_type":"Force","location":{"latitude":"51.521855","street":{"id":960456,"name":"On or near Great Central Street"},"longitude":"-0.162203"},"context":"","outcome_status":null,"persistent_id":"","id":47902896,"location_subtype":"","month":"2016-03"},{"category":"anti-social-behaviour","location_type":"Force","location":{"latitude":"51.515957","street":{"id":957058,"name":"On or near London Street"},"longitude":"-0.174979"},"context":"","outcome_status":null,"persistent_id":"","id":47900880,"location_subtype":"","month":"2016-03"},{"category":"anti-social-behaviour","location_type":"Force","location":{"latitude":"51.488669","street":{"id":950450,"name":"On or near Beryl Road"},"longitude":"-0.220852"},"context":"","outcome_status":null,"persistent_id":"","id":47890234,"location_subtype":"","month":"2016-03"},{"category":"anti-social-behaviour","location_type":"Force","location":{"latitude":"51.519617","street":{"id":960444,"name":"On or near Tarrant Place"},"longitude":"-0.162293"},"context":"","outcome_status":null,"persistent_id":"","id":47902887,"location_subtype":"","month":"2016-03"},{"category":"anti-social-behaviour","location_type":"Force","location":{"latitude":"51.488669","street":{"id":950450,"name":"On or near Beryl Road"},"longitude":"-0.220852"},"context":"","outcome_status":null,"persistent_id":"","id":47890237,"location_subtype":"","month":"2016-03"},{"category":"anti-social-behaviour","location_type":"Force","location":{"latitude":"51.519657","street":{"id":960342,"name":"On or near Shopping Area"},"longitude":"-0.168849"},"context":"","outcome_status":null,"persistent_id":"","id":47903129,"location_subtype":"","month":"2016-03"},{"category":"anti-social-behaviour","location_type":"Force","location":{"latitude":"51.519657","street":{"id":960342,"name":"On or near Shopping Area"},"longitude":"-0.168849"},"context":"","outcome_status":null,"persistent_id":"","id":47903126,"location_subtype":"","month":"2016-03"},{"category":"anti-social-behaviour","location_type":"Force","location":{"latitude":"51.488669","street":{"id":950450,"name":"On or near Beryl Road"},"longitude":"-0.220852"},"context":"","outcome_status":null,"persistent_id":"","id":47890240,"location_subtype":"","month":"2016-03"},{"category":"anti-social-behaviour","location_type":"Force","location":{"latitude":"51.519657","street":{"id":960342,"name":"On or near Shopping Area"},"longitude":"-0.168849"},"context":"","outcome_status":null,"persistent_id":"","id":47903123,"location_subtype":"","month":"2016-03"},{"category":"anti-social-behaviour","location_type":"Force","location":{"latitude":"51.519657","street":{"id":960342,"name":"On or near Shopping Area"},"longitude":"-0.168849"},"context":"","outcome_status":null,"persistent_id":"","id":47903120,"location_subtype":"","month":"2016-03"},{"category":"anti-social-behaviour","location_type":"Force","location":{"latitude":"51.524394","street":{"id":960403,"name":"On or near Linhope Street"},"longitude":"-0.161855"},"context":"","outcome_status":null,"persistent_id":"","id":47902877,"location_subtype":"","month":"2016-03"},{"category":"anti-social-behaviour","location_type":"Force","location":{"latitude":"51.521049","street":{"id":960447,"name":"On or near Salisbury Place"},"longitude":"-0.160159"},"context":"","outcome_status":null,"persistent_id":"","id":47902860,"location_subtype":"","month":"2016-03"},{"category":"anti-social-behaviour","location_type":"Force","location":{"latitude":"51.515957","street":{"id":957058,"name":"On or near London Street"},"longitude":"-0.174979"},"context":"","outcome_status":null,"persistent_id":"","id":47900883,"location_subtype":"","month":"2016-03"},{"category":"anti-social-behaviour","location_type":"Force","location":{"latitude":"51.600222","street":{"id":981925,"name":"On or near Amber Avenue"},"longitude":"-0.033921"},"context":"","outcome_status":null,"persistent_id":"","id":47890980,"location_subtype":"","month":"2016-03"},{"category":"anti-social-behaviour","location_type":"Force","location":{"latitude":"51.521049","street":{"id":960447,"name":"On or near Salisbury Place"},"longitude":"-0.160159"},"context":"","outcome_status":null,"persistent_id":"","id":47902857,"location_subtype":"","month":"2016-03"},{"category":"anti-social-behaviour","location_type":"Force","location":{"latitude":"51.542694","street":{"id":964970,"name":"On or near Agar Grove"},"longitude":"-0.133386"},"context":"","outcome_status":null,"persistent_id":"","id":47901963,"location_subtype":"","month":"2016-03"},{"category":"anti-social-behaviour","location_type":"Force","location":{"latitude":"51.521729","street":{"id":960508,"name":"On or near Further\/higher Educational Building"},"longitude":"-0.157062"},"context":"","outcome_status":null,"persistent_id":"","id":47902736,"location_subtype":"","month":"2016-03"},{"category":"anti-social-behaviour","location_type":"Force","location":{"latitude":"51.521729","street":{"id":960508,"name":"On or near Further\/higher Educational Building"},"longitude":"-0.157062"},"context":"","outcome_status":null,"persistent_id":"","id":47902733,"location_subtype":"","month":"2016-03"},{"category":"anti-social-behaviour","location_type":"Force","location":{"latitude":"51.521729","street":{"id":960508,"name":"On or near Further\/higher Educational Building"},"longitude":"-0.157062"},"context":"","outcome_status":null,"persistent_id":"","id":47902730,"location_subtype":"","month":"2016-03"},{"category":"anti-social-behaviour","location_type":"Force","location":{"latitude":"51.534971","street":{"id":964953,"name":"On or near Goldington Crescent"},"longitude":"-0.134077"},"context":"","outcome_status":null,"persistent_id":"","id":47901975,"location_subtype":"","month":"2016-03"},{"category":"anti-social-behaviour","location_type":"Force","location":{"latitude":"51.521729","street":{"id":960508,"name":"On or near Further\/higher Educational Building"},"longitude":"-0.157062"},"context":"","outcome_status":null,"persistent_id":"","id":47902727,"location_subtype":"","month":"2016-03"},{"category":"anti-social-behaviour","location_type":"Force","location":{"latitude":"51.521729","street":{"id":960508,"name":"On or near Further\/higher Educational Building"},"longitude":"-0.157062"},"context":"","outcome_status":null,"persistent_id":"","id":47902724,"location_subtype":"","month":"2016-03"},{"category":"anti-social-behaviour","location_type":"Force","location":{"latitude":"51.505399","street":{"id":952736,"name":"On or near Kensington Church Street"},"longitude":"-0.194076"},"context":"","outcome_status":null,"persistent_id":"","id":47902113,"location_subtype":"","month":"2016-03"},{"category":"anti-social-behaviour","location_type":"Force","location":{"latitude":"51.534971","street":{"id":964953,"name":"On or near Goldington Crescent"},"longitude":"-0.134077"},"context":"","outcome_status":null,"persistent_id":"","id":47901988,"location_subtype":"","month":"2016-03"},{"category":"anti-social-behaviour","location_type":"Force","location":{"latitude":"51.501202","street":{"id":952727,"name":"On or near Phillimore Walk"},"longitude":"-0.194242"},"context":"","outcome_status":null,"persistent_id":"","id":47902107,"location_subtype":"","month":"2016-03"},{"category":"anti-social-behaviour","location_type":"Force","location":{"latitude":"51.521369","street":{"id":960341,"name":"On or near Bell Street"},"longitude":"-0.167945"},"context":"","outcome_status":null,"persistent_id":"","id":47903033,"location_subtype":"","month":"2016-03"},{"category":"anti-social-behaviour","location_type":"Force","location":{"latitude":"51.552769","street":{"id":968191,"name":"On or near Rollit Street"},"longitude":"-0.111683"},"context":"","outcome_status":null,"persistent_id":"","id":47883320,"location_subtype":"","month":"2016-03"},{"category":"anti-social-behaviour","location_type":"Force","location":{"latitude":"51.516061","street":{"id":957059,"name":"On or near London Mews"},"longitude":"-0.174139"},"context":"","outcome_status":null,"persistent_id":"","id":47900848,"location_subtype":"","month":"2016-03"},{"category":"anti-social-behaviour","location_type":"Force","location":{"latitude":"51.517975","street":{"id":957090,"name":"On or near Junction Mews"},"longitude":"-0.168845"},"context":"","outcome_status":null,"persistent_id":"","id":47903023,"location_subtype":"","month":"2016-03"},{"category":"anti-social-behaviour","location_type":"Force","location":{"latitude":"51.517975","street":{"id":957090,"name":"On or near Junction Mews"},"longitude":"-0.168845"},"context":"","outcome_status":null,"persistent_id":"","id":47903021,"location_subtype":"","month":"2016-03"},{"category":"anti-social-behaviour","location_type":"Force","location":{"latitude":"51.555473","street":{"id":968203,"name":"On or near Highbury Hill"},"longitude":"-0.103175"},"context":"","outcome_status":null,"persistent_id":"","id":47885642,"location_subtype":"","month":"2016-03"},{"category":"anti-social-behaviour","location_type":"Force","location":{"latitude":"51.553021","street":{"id":968181,"name":"On or near Whistler Street"},"longitude":"-0.104460"},"context":"","outcome_status":null,"persistent_id":"","id":47885651,"location_subtype":"","month":"2016-03"},{"category":"anti-social-behaviour","location_type":"Force","location":{"latitude":"51.556630","street":{"id":968208,"name":"On or near Elfort Road"},"longitude":"-0.105190"},"context":"","outcome_status":null,"persistent_id":"","id":47885668,"location_subtype":"","month":"2016-03"},{"category":"anti-social-behaviour","location_type":"Force","location":{"latitude":"51.548284","street":{"id":968233,"name":"On or near Watkinson Road"},"longitude":"-0.116844"},"context":"","outcome_status":null,"persistent_id":"","id":47889013,"location_subtype":"","month":"2016-03"},{"category":"anti-social-behaviour","location_type":"Force","location":{"latitude":"51.516061","street":{"id":957059,"name":"On or near London Mews"},"longitude":"-0.174139"},"context":"","outcome_status":null,"persistent_id":"","id":47900851,"location_subtype":"","month":"2016-03"},{"category":"anti-social-behaviour","location_type":"Force","location":{"latitude":"51.554682","street":{"id":968211,"name":"On or near Drayton Park"},"longitude":"-0.105401"},"context":"","outcome_status":null,"persistent_id":"","id":47885675,"location_subtype":"","month":"2016-03"},{"category":"anti-social-behaviour","location_type":"Force","location":{"latitude":"51.517975","street":{"id":957090,"name":"On or near Junction Mews"},"longitude":"-0.168845"},"context":"","outcome_status":null,"persistent_id":"","id":47903018,"location_subtype":"","month":"2016-03"},{"category":"anti-social-behaviour","location_type":"Force","location":{"latitude":"51.517975","street":{"id":957090,"name":"On or near Junction Mews"},"longitude":"-0.168845"},"context":"","outcome_status":null,"persistent_id":"","id":47903016,"location_subtype":"","month":"2016-03"},{"category":"anti-social-behaviour","location_type":"Force","location":{"latitude":"51.549018","street":{"id":968249,"name":"On or near Sports\/recreation Area"},"longitude":"-0.121156"},"context":"","outcome_status":null,"persistent_id":"","id":47889142,"location_subtype":"","month":"2016-03"},{"category":"anti-social-behaviour","location_type":"Force","location":{"latitude":"51.521789","street":{"id":960469,"name":"On or near Bendall Mews"},"longitude":"-0.165492"},"context":"","outcome_status":null,"persistent_id":"","id":47902970,"location_subtype":"","month":"2016-03"},{"category":"anti-social-behaviour","location_type":"Force","location":{"latitude":"51.516061","street":{"id":957059,"name":"On or near London Mews"},"longitude":"-0.174139"},"context":"","outcome_status":null,"persistent_id":"","id":47900854,"location_subtype":"","month":"2016-03"},{"category":"anti-social-behaviour","location_type":"Force","location":{"latitude":"51.516061","street":{"id":957059,"name":"On or near London Mews"},"longitude":"-0.174139"},"context":"","outcome_status":null,"persistent_id":"","id":47900857,"location_subtype":"","month":"2016-03"},{"category":"anti-social-behaviour","location_type":"Force","location":{"latitude":"51.521789","street":{"id":960469,"name":"On or near Bendall Mews"},"longitude":"-0.165492"},"context":"","outcome_status":null,"persistent_id":"","id":47902966,"location_subtype":"","month":"2016-03"},{"category":"anti-social-behaviour","location_type":"Force","location":{"latitude":"51.514540","street":{"id":957067,"name":"On or near Craven Road"},"longitude":"-0.177529"},"context":"","outcome_status":null,"persistent_id":"","id":47900940,"location_subtype":"","month":"2016-03"},{"category":"anti-social-behaviour","location_type":"Force","location":{"latitude":"51.521789","street":{"id":960469,"name":"On or near Bendall Mews"},"longitude":"-0.165492"},"context":"","outcome_status":null,"persistent_id":"","id":47902965,"location_subtype":"","month":"2016-03"},{"category":"anti-social-behaviour","location_type":"Force","location":{"latitude":"51.543632","street":{"id":964647,"name":"On or near Conistone Way"},"longitude":"-0.120599"},"context":"","outcome_status":null,"persistent_id":"","id":47889143,"location_subtype":"","month":"2016-03"},{"category":"anti-social-behaviour","location_type":"Force","location":{"latitude":"51.521789","street":{"id":960469,"name":"On or near Bendall Mews"},"longitude":"-0.165492"},"context":"","outcome_status":null,"persistent_id":"","id":47902963,"location_subtype":"","month":"2016-03"},{"category":"anti-social-behaviour","location_type":"Force","location":{"latitude":"51.600222","street":{"id":981925,"name":"On or near Amber Avenue"},"longitude":"-0.033921"},"context":"","outcome_status":null,"persistent_id":"","id":47890983,"location_subtype":"","month":"2016-03"},{"category":"anti-social-behaviour","location_type":"Force","location":{"latitude":"51.600222","street":{"id":981925,"name":"On or near Amber Avenue"},"longitude":"-0.033921"},"context":"","outcome_status":null,"persistent_id":"","id":47890985,"location_subtype":"","month":"2016-03"},{"category":"anti-social-behaviour","location_type":"Force","location":{"latitude":"51.501202","street":{"id":952727,"name":"On or near Phillimore Walk"},"longitude":"-0.194242"},"context":"","outcome_status":null,"persistent_id":"","id":47902104,"location_subtype":"","month":"2016-03"},{"category":"anti-social-behaviour","location_type":"Force","location":{"latitude":"51.501202","street":{"id":952727,"name":"On or near Phillimore Walk"},"longitude":"-0.194242"},"context":"","outcome_status":null,"persistent_id":"","id":47902101,"location_subtype":"","month":"2016-03"},{"category":"anti-social-behaviour","location_type":"Force","location":{"latitude":"51.600222","street":{"id":981925,"name":"On or near Amber Avenue"},"longitude":"-0.033921"},"context":"","outcome_status":null,"persistent_id":"","id":47890987,"location_subtype":"","month":"2016-03"},{"category":"anti-social-behaviour","location_type":"Force","location":{"latitude":"51.534971","street":{"id":964953,"name":"On or near Goldington Crescent"},"longitude":"-0.134077"},"context":"","outcome_status":null,"persistent_id":"","id":47901991,"location_subtype":"","month":"2016-03"},{"category":"anti-social-behaviour","location_type":"Force","location":{"latitude":"51.503452","street":{"id":952742,"name":"On or near Holland Place"},"longitude":"-0.192006"},"context":"","outcome_status":null,"persistent_id":"","id":47902084,"location_subtype":"","month":"2016-03"},{"category":"anti-social-behaviour","location_type":"Force","location":{"latitude":"51.600222","street":{"id":981925,"name":"On or near Amber Avenue"},"longitude":"-0.033921"},"context":"","outcome_status":null,"persistent_id":"","id":47890990,"location_subtype":"","month":"2016-03"},{"category":"anti-social-behaviour","location_type":"Force","location":{"latitude":"51.521729","street":{"id":960508,"name":"On or near Further\/higher Educational Building"},"longitude":"-0.157062"},"context":"","outcome_status":null,"persistent_id":"","id":47902742,"location_subtype":"","month":"2016-03"},{"category":"anti-social-behaviour","location_type":"Force","location":{"latitude":"51.521729","street":{"id":960508,"name":"On or near Further\/higher Educational Building"},"longitude":"-0.157062"},"context":"","outcome_status":null,"persistent_id":"","id":47902740,"location_subtype":"","month":"2016-03"},{"category":"anti-social-behaviour","location_type":"Force","location":{"latitude":"51.511425","street":{"id":956977,"name":"On or near Leinster Terrace"},"longitude":"-0.183058"},"context":"","outcome_status":null,"persistent_id":"","id":47901010,"location_subtype":"","month":"2016-03"},{"category":"anti-social-behaviour","location_type":"Force","location":{"latitude":"51.511425","street":{"id":956977,"name":"On or near Leinster Terrace"},"longitude":"-0.183058"},"context":"","outcome_status":null,"persistent_id":"","id":47901007,"location_subtype":"","month":"2016-03"},{"category":"anti-social-behaviour","location_type":"Force","location":{"latitude":"51.517199","street":{"id":957081,"name":"On or near Praed Street"},"longitude":"-0.172739"},"context":"","outcome_status":null,"persistent_id":"","id":47900840,"location_subtype":"","month":"2016-03"},{"category":"anti-social-behaviour","location_type":"Force","location":{"latitude":"51.511734","street":{"id":956979,"name":"On or near Leinster Mews"},"longitude":"-0.182166"},"context":"","outcome_status":null,"persistent_id":"","id":47900996,"location_subtype":"","month":"2016-03"},{"category":"anti-social-behaviour","location_type":"Force","location":{"latitude":"51.511734","street":{"id":956979,"name":"On or near Leinster Mews"},"longitude":"-0.182166"},"context":"","outcome_status":null,"persistent_id":"","id":47900994,"location_subtype":"","month":"2016-03"},{"category":"anti-social-behaviour","location_type":"Force","location":{"latitude":"51.514026","street":{"id":956994,"name":"On or near Devonshire Terrace"},"longitude":"-0.180346"},"context":"","outcome_status":null,"persistent_id":"","id":47900989,"location_subtype":"","month":"2016-03"},{"category":"anti-social-behaviour","location_type":"Force","location":{"latitude":"51.514026","street":{"id":956994,"name":"On or near Devonshire Terrace"},"longitude":"-0.180346"},"context":"","outcome_status":null,"persistent_id":"","id":47900987,"location_subtype":"","month":"2016-03"},{"category":"anti-social-behaviour","location_type":"Force","location":{"latitude":"51.514026","street":{"id":956994,"name":"On or near Devonshire Terrace"},"longitude":"-0.180346"},"context":"","outcome_status":null,"persistent_id":"","id":47900983,"location_subtype":"","month":"2016-03"},{"category":"anti-social-behaviour","location_type":"Force","location":{"latitude":"51.514026","street":{"id":956994,"name":"On or near Devonshire Terrace"},"longitude":"-0.180346"},"context":"","outcome_status":null,"persistent_id":"","id":47900981,"location_subtype":"","month":"2016-03"},{"category":"anti-social-behaviour","location_type":"Force","location":{"latitude":"51.514026","street":{"id":956994,"name":"On or near Devonshire Terrace"},"longitude":"-0.180346"},"context":"","outcome_status":null,"persistent_id":"","id":47900978,"location_subtype":"","month":"2016-03"},{"category":"anti-social-behaviour","location_type":"Force","location":{"latitude":"51.514026","street":{"id":956994,"name":"On or near Devonshire Terrace"},"longitude":"-0.180346"},"context":"","outcome_status":null,"persistent_id":"","id":47900975,"location_subtype":"","month":"2016-03"},{"category":"anti-social-behaviour","location_type":"Force","location":{"latitude":"51.512619","street":{"id":957073,"name":"On or near Cerney Mews"},"longitude":"-0.176583"},"context":"","outcome_status":null,"persistent_id":"","id":47900909,"location_subtype":"","month":"2016-03"},{"category":"anti-social-behaviour","location_type":"Force","location":{"latitude":"51.523377","street":{"id":960349,"name":"On or near York Terrace West"},"longitude":"-0.154328"},"context":"","outcome_status":null,"persistent_id":"","id":47900685,"location_subtype":"","month":"2016-03"},{"category":"anti-social-behaviour","location_type":"Force","location":{"latitude":"51.600222","street":{"id":981925,"name":"On or near Amber Avenue"},"longitude":"-0.033921"},"context":"","outcome_status":null,"persistent_id":"","id":47890993,"location_subtype":"","month":"2016-03"},{"category":"anti-social-behaviour","location_type":"Force","location":{"latitude":"51.513204","street":{"id":957075,"name":"On or near Brook Mews North"},"longitude":"-0.178375"},"context":"","outcome_status":null,"persistent_id":"","id":47900946,"location_subtype":"","month":"2016-03"},{"category":"anti-social-behaviour","location_type":"Force","location":{"latitude":"51.511691","street":{"id":956981,"name":"On or near Lancaster Gate"},"longitude":"-0.180511"},"context":"","outcome_status":null,"persistent_id":"","id":47900972,"location_subtype":"","month":"2016-03"},{"category":"anti-social-behaviour","location_type":"Force","location":{"latitude":"51.600222","street":{"id":981925,"name":"On or near Amber Avenue"},"longitude":"-0.033921"},"context":"","outcome_status":null,"persistent_id":"","id":47890995,"location_subtype":"","month":"2016-03"},{"category":"anti-social-behaviour","location_type":"Force","location":{"latitude":"51.601677","street":{"id":981907,"name":"On or near Stow Crescent"},"longitude":"-0.030580"},"context":"","outcome_status":null,"persistent_id":"","id":47890927,"location_subtype":"","month":"2016-03"},{"category":"anti-social-behaviour","location_type":"Force","location":{"latitude":"51.597720","street":{"id":981837,"name":"On or near Sports\/recreation Area"},"longitude":"-0.038086"},"context":"","outcome_status":null,"persistent_id":"","id":47891049,"location_subtype":"","month":"2016-03"},{"category":"anti-social-behaviour","location_type":"Force","location":{"latitude":"51.597720","street":{"id":981837,"name":"On or near Sports\/recreation Area"},"longitude":"-0.038086"},"context":"","outcome_status":null,"persistent_id":"","id":47891051,"location_subtype":"","month":"2016-03"},{"category":"anti-social-behaviour","location_type":"Force","location":{"latitude":"51.597720","street":{"id":981837,"name":"On or near Sports\/recreation Area"},"longitude":"-0.038086"},"context":"","outcome_status":null,"persistent_id":"","id":47891053,"location_subtype":"","month":"2016-03"},{"category":"anti-social-behaviour","location_type":"Force","location":{"latitude":"51.597720","street":{"id":981837,"name":"On or near Sports\/recreation Area"},"longitude":"-0.038086"},"context":"","outcome_status":null,"persistent_id":"","id":47891056,"location_subtype":"","month":"2016-03"},{"category":"anti-social-behaviour","location_type":"Force","location":{"latitude":"51.613706","street":{"id":983452,"name":"On or near Kingsley Gardens"},"longitude":"-0.017074"},"context":"","outcome_status":null,"persistent_id":"","id":47892229,"location_subtype":"","month":"2016-03"},{"category":"anti-social-behaviour","location_type":"Force","location":{"latitude":"51.613706","street":{"id":983452,"name":"On or near Kingsley Gardens"},"longitude":"-0.017074"},"context":"","outcome_status":null,"persistent_id":"","id":47892232,"location_subtype":"","month":"2016-03"},{"category":"anti-social-behaviour","location_type":"Force","location":{"latitude":"51.616272","street":{"id":983351,"name":"On or near Normanshire Drive"},"longitude":"-0.012484"},"context":"","outcome_status":null,"persistent_id":"","id":47892033,"location_subtype":"","month":"2016-03"},{"category":"anti-social-behaviour","location_type":"Force","location":{"latitude":"51.613706","street":{"id":983452,"name":"On or near Kingsley Gardens"},"longitude":"-0.017074"},"context":"","outcome_status":null,"persistent_id":"","id":47892234,"location_subtype":"","month":"2016-03"},{"category":"anti-social-behaviour","location_type":"Force","location":{"latitude":"51.494610","street":{"id":952817,"name":"On or near Avonmore Road"},"longitude":"-0.206546"},"context":"","outcome_status":null,"persistent_id":"","id":47896216,"location_subtype":"","month":"2016-03"},{"category":"anti-social-behaviour","location_type":"Force","location":{"latitude":"51.493313","street":{"id":950144,"name":"On or near North End Road"},"longitude":"-0.208729"},"context":"","outcome_status":null,"persistent_id":"","id":47896228,"location_subtype":"","month":"2016-03"},{"category":"anti-social-behaviour","location_type":"Force","location":{"latitude":"51.542110","street":{"id":964950,"name":"On or near Maiden Lane"},"longitude":"-0.127771"},"context":"","outcome_status":null,"persistent_id":"","id":47896663,"location_subtype":"","month":"2016-03"},{"category":"anti-social-behaviour","location_type":"Force","location":{"latitude":"51.542110","street":{"id":964950,"name":"On or near Maiden Lane"},"longitude":"-0.127771"},"context":"","outcome_status":null,"persistent_id":"","id":47896666,"location_subtype":"","month":"2016-03"},{"category":"anti-social-behaviour","location_type":"Force","location":{"latitude":"51.542110","street":{"id":964950,"name":"On or near Maiden Lane"},"longitude":"-0.127771"},"context":"","outcome_status":null,"persistent_id":"","id":47896669,"location_subtype":"","month":"2016-03"},{"category":"anti-social-behaviour","location_type":"Force","location":{"latitude":"51.536812","street":{"id":964883,"name":"On or near Camden Street"},"longitude":"-0.136727"},"context":"","outcome_status":null,"persistent_id":"","id":47896672,"location_subtype":"","month":"2016-03"},{"category":"anti-social-behaviour","location_type":"Force","location":{"latitude":"51.536812","street":{"id":964883,"name":"On or near Camden Street"},"longitude":"-0.136727"},"context":"","outcome_status":null,"persistent_id":"","id":47896674,"location_subtype":"","month":"2016-03"},{"category":"anti-social-behaviour","location_type":"Force","location":{"latitude":"51.534183","street":{"id":964988,"name":"On or near Oakley Square"},"longitude":"-0.136517"},"context":"","outcome_status":null,"persistent_id":"","id":47896677,"location_subtype":"","month":"2016-03"},{"category":"anti-social-behaviour","location_type":"Force","location":{"latitude":"51.537854","street":{"id":964863,"name":"On or near Mandela Street"},"longitude":"-0.136670"},"context":"","outcome_status":null,"persistent_id":"","id":47896833,"location_subtype":"","month":"2016-03"},{"category":"anti-social-behaviour","location_type":"Force","location":{"latitude":"51.533526","street":{"id":965000,"name":"On or near Harrington Square"},"longitude":"-0.138793"},"context":"","outcome_status":null,"persistent_id":"","id":47896835,"location_subtype":"","month":"2016-03"},{"category":"anti-social-behaviour","location_type":"Force","location":{"latitude":"51.533526","street":{"id":965000,"name":"On or near Harrington Square"},"longitude":"-0.138793"},"context":"","outcome_status":null,"persistent_id":"","id":47896838,"location_subtype":"","month":"2016-03"},{"category":"anti-social-behaviour","location_type":"Force","location":{"latitude":"51.541936","street":{"id":964963,"name":"On or near Broadfield Lane"},"longitude":"-0.126437"},"context":"","outcome_status":null,"persistent_id":"","id":47896583,"location_subtype":"","month":"2016-03"},{"category":"anti-social-behaviour","location_type":"Force","location":{"latitude":"51.542110","street":{"id":964950,"name":"On or near Maiden Lane"},"longitude":"-0.127771"},"context":"","outcome_status":null,"persistent_id":"","id":47896626,"location_subtype":"","month":"2016-03"},{"category":"anti-social-behaviour","location_type":"Force","location":{"latitude":"51.542901","street":{"id":964938,"name":"On or near St Pauls Mews"},"longitude":"-0.127739"},"context":"","outcome_status":null,"persistent_id":"","id":47896634,"location_subtype":"","month":"2016-03"},{"category":"anti-social-behaviour","location_type":"Force","location":{"latitude":"51.522924","street":{"id":960409,"name":"On or near Harewood Avenue"},"longitude":"-0.164452"},"context":"","outcome_status":null,"persistent_id":"","id":47902947,"location_subtype":"","month":"2016-03"},{"category":"anti-social-behaviour","location_type":"Force","location":{"latitude":"51.531913","street":{"id":960671,"name":"On or near Granby Terrace"},"longitude":"-0.139104"},"context":"","outcome_status":null,"persistent_id":"","id":47899829,"location_subtype":"","month":"2016-03"},{"category":"anti-social-behaviour","location_type":"Force","location":{"latitude":"51.533526","street":{"id":965000,"name":"On or near Harrington Square"},"longitude":"-0.138793"},"context":"","outcome_status":null,"persistent_id":"","id":47899796,"location_subtype":"","month":"2016-03"},{"category":"anti-social-behaviour","location_type":"Force","location":{"latitude":"51.519971","street":{"id":960455,"name":"On or near Harcourt Street"},"longitude":"-0.164801"},"context":"","outcome_status":null,"persistent_id":"","id":47902972,"location_subtype":"","month":"2016-03"},{"category":"anti-social-behaviour","location_type":"Force","location":{"latitude":"51.533526","street":{"id":965000,"name":"On or near Harrington Square"},"longitude":"-0.138793"},"context":"","outcome_status":null,"persistent_id":"","id":47899792,"location_subtype":"","month":"2016-03"},{"category":"anti-social-behaviour","location_type":"Force","location":{"latitude":"51.533526","street":{"id":965000,"name":"On or near Harrington Square"},"longitude":"-0.138793"},"context":"","outcome_status":null,"persistent_id":"","id":47899789,"location_subtype":"","month":"2016-03"},{"category":"anti-social-behaviour","location_type":"Force","location":{"latitude":"51.572419","street":{"id":975138,"name":"On or near Bethune Road"},"longitude":"-0.082425"},"context":"","outcome_status":null,"persistent_id":"","id":47899434,"location_subtype":"","month":"2016-03"},{"category":"anti-social-behaviour","location_type":"Force","location":{"latitude":"51.572419","street":{"id":975138,"name":"On or near Bethune Road"},"longitude":"-0.082425"},"context":"","outcome_status":null,"persistent_id":"","id":47899437,"location_subtype":"","month":"2016-03"},{"category":"anti-social-behaviour","location_type":"Force","location":{"latitude":"51.533526","street":{"id":965000,"name":"On or near Harrington Square"},"longitude":"-0.138793"},"context":"","outcome_status":null,"persistent_id":"","id":47899786,"location_subtype":"","month":"2016-03"},{"category":"anti-social-behaviour","location_type":"Force","location":{"latitude":"51.572419","street":{"id":975138,"name":"On or near Bethune Road"},"longitude":"-0.082425"},"context":"","outcome_status":null,"persistent_id":"","id":47899440,"location_subtype":"","month":"2016-03"},{"category":"anti-social-behaviour","location_type":"Force","location":{"latitude":"51.520819","street":{"id":960457,"name":"On or near Gloucester Place"},"longitude":"-0.159246"},"context":"","outcome_status":null,"persistent_id":"","id":47902815,"location_subtype":"","month":"2016-03"},{"category":"anti-social-behaviour","location_type":"Force","location":{"latitude":"51.519657","street":{"id":960342,"name":"On or near Shopping Area"},"longitude":"-0.168849"},"context":"","outcome_status":null,"persistent_id":"","id":47903102,"location_subtype":"","month":"2016-03"},{"category":"anti-social-behaviour","location_type":"Force","location":{"latitude":"51.572419","street":{"id":975138,"name":"On or near Bethune Road"},"longitude":"-0.082425"},"context":"","outcome_status":null,"persistent_id":"","id":47899443,"location_subtype":"","month":"2016-03"},{"category":"anti-social-behaviour","location_type":"Force","location":{"latitude":"51.575757","street":{"id":975269,"name":"On or near Allan Barclay Close"},"longitude":"-0.073178"},"context":"","outcome_status":null,"persistent_id":"","id":47898594,"location_subtype":"","month":"2016-03"},{"category":"anti-social-behaviour","location_type":"Force","location":{"latitude":"51.575757","street":{"id":975269,"name":"On or near Allan Barclay Close"},"longitude":"-0.073178"},"context":"","outcome_status":null,"persistent_id":"","id":47898591,"location_subtype":"","month":"2016-03"},{"category":"anti-social-behaviour","location_type":"Force","location":{"latitude":"51.572419","street":{"id":975138,"name":"On or near Bethune Road"},"longitude":"-0.082425"},"context":"","outcome_status":null,"persistent_id":"","id":47899445,"location_subtype":"","month":"2016-03"},{"category":"anti-social-behaviour","location_type":"Force","location":{"latitude":"51.519657","street":{"id":960342,"name":"On or near Shopping Area"},"longitude":"-0.168849"},"context":"","outcome_status":null,"persistent_id":"","id":47903117,"location_subtype":"","month":"2016-03"},{"category":"anti-social-behaviour","location_type":"Force","location":{"latitude":"51.535007","street":{"id":964896,"name":"On or near Bayham Place"},"longitude":"-0.137997"},"context":"","outcome_status":null,"persistent_id":"","id":47899807,"location_subtype":"","month":"2016-03"},{"category":"anti-social-behaviour","location_type":"Force","location":{"latitude":"51.573252","street":{"id":975270,"name":"On or near Supermarket"},"longitude":"-0.073414"},"context":"","outcome_status":null,"persistent_id":"","id":47898588,"location_subtype":"","month":"2016-03"},{"category":"anti-social-behaviour","location_type":"Force","location":{"latitude":"51.575124","street":{"id":975212,"name":"On or near Lewis Gardens"},"longitude":"-0.072931"},"context":"","outcome_status":null,"persistent_id":"","id":47898585,"location_subtype":"","month":"2016-03"},{"category":"anti-social-behaviour","location_type":"Force","location":{"latitude":"51.569972","street":{"id":971717,"name":"On or near St Andrew's Mews"},"longitude":"-0.079007"},"context":"","outcome_status":null,"persistent_id":"","id":47898141,"location_subtype":"","month":"2016-03"},{"category":"anti-social-behaviour","location_type":"Force","location":{"latitude":"51.569972","street":{"id":971717,"name":"On or near St Andrew's Mews"},"longitude":"-0.079007"},"context":"","outcome_status":null,"persistent_id":"","id":47898138,"location_subtype":"","month":"2016-03"},{"category":"anti-social-behaviour","location_type":"Force","location":{"latitude":"51.565934","street":{"id":971861,"name":"On or near Castleview Close"},"longitude":"-0.093924"},"context":"","outcome_status":null,"persistent_id":"","id":47899611,"location_subtype":"","month":"2016-03"},{"category":"anti-social-behaviour","location_type":"Force","location":{"latitude":"51.514687","street":{"id":957065,"name":"On or near Gloucester Square"},"longitude":"-0.171340"},"context":"","outcome_status":null,"persistent_id":"","id":47905209,"location_subtype":"","month":"2016-03"},{"category":"anti-social-behaviour","location_type":"Force","location":{"latitude":"51.534773","street":{"id":964893,"name":"On or near Bayham Street"},"longitude":"-0.137473"},"context":"","outcome_status":null,"persistent_id":"","id":47896827,"location_subtype":"","month":"2016-03"},{"category":"anti-social-behaviour","location_type":"Force","location":{"latitude":"51.534773","street":{"id":964893,"name":"On or near Bayham Street"},"longitude":"-0.137473"},"context":"","outcome_status":null,"persistent_id":"","id":47896821,"location_subtype":"","month":"2016-03"},{"category":"anti-social-behaviour","location_type":"Force","location":{"latitude":"51.564892","street":{"id":971846,"name":"On or near Myddleton Avenue"},"longitude":"-0.095627"},"context":"","outcome_status":null,"persistent_id":"","id":47899618,"location_subtype":"","month":"2016-03"},{"category":"anti-social-behaviour","location_type":"Force","location":{"latitude":"51.534773","street":{"id":964893,"name":"On or near Bayham Street"},"longitude":"-0.137473"},"context":"","outcome_status":null,"persistent_id":"","id":47896819,"location_subtype":"","month":"2016-03"},{"category":"anti-social-behaviour","location_type":"Force","location":{"latitude":"51.533526","street":{"id":965000,"name":"On or near Harrington Square"},"longitude":"-0.138793"},"context":"","outcome_status":null,"persistent_id":"","id":47899814,"location_subtype":"","month":"2016-03"},{"category":"anti-social-behaviour","location_type":"Force","location":{"latitude":"51.532630","street":{"id":964998,"name":"On or near Harrington Square"},"longitude":"-0.138426"},"context":"","outcome_status":null,"persistent_id":"","id":47899804,"location_subtype":"","month":"2016-03"},{"category":"anti-social-behaviour","location_type":"Force","location":{"latitude":"51.534773","street":{"id":964893,"name":"On or near Bayham Street"},"longitude":"-0.137473"},"context":"","outcome_status":null,"persistent_id":"","id":47896817,"location_subtype":"","month":"2016-03"},{"category":"anti-social-behaviour","location_type":"Force","location":{"latitude":"51.518383","street":{"id":956798,"name":"On or near Bryanston Place"},"longitude":"-0.162732"},"context":"","outcome_status":null,"persistent_id":"","id":47902909,"location_subtype":"","month":"2016-03"},{"category":"anti-social-behaviour","location_type":"Force","location":{"latitude":"51.540060","street":{"id":964954,"name":"On or near Georgiana Street"},"longitude":"-0.136248"},"context":"","outcome_status":null,"persistent_id":"","id":47896793,"location_subtype":"","month":"2016-03"},{"category":"anti-social-behaviour","location_type":"Force","location":{"latitude":"51.516610","street":{"id":957051,"name":"On or near Southwick Mews"},"longitude":"-0.171263"},"context":"","outcome_status":null,"persistent_id":"","id":47905221,"location_subtype":"","month":"2016-03"},{"category":"anti-social-behaviour","location_type":"Force","location":{"latitude":"51.540060","street":{"id":964954,"name":"On or near Georgiana Street"},"longitude":"-0.136248"},"context":"","outcome_status":null,"persistent_id":"","id":47896791,"location_subtype":"","month":"2016-03"},{"category":"anti-social-behaviour","location_type":"Force","location":{"latitude":"51.533665","street":{"id":965003,"name":"On or near Mornington Place"},"longitude":"-0.141296"},"context":"","outcome_status":null,"persistent_id":"","id":47899945,"location_subtype":"","month":"2016-03"},{"category":"anti-social-behaviour","location_type":"Force","location":{"latitude":"51.533744","street":{"id":964987,"name":"On or near Oakley Square"},"longitude":"-0.136059"},"context":"","outcome_status":null,"persistent_id":"","id":47896787,"location_subtype":"","month":"2016-03"},{"category":"anti-social-behaviour","location_type":"Force","location":{"latitude":"51.530859","street":{"id":960692,"name":"On or near Augustus Street"},"longitude":"-0.141814"},"context":"","outcome_status":null,"persistent_id":"","id":47899948,"location_subtype":"","month":"2016-03"},{"category":"anti-social-behaviour","location_type":"Force","location":{"latitude":"51.580441","street":{"id":975213,"name":"On or near Pedestrian Subway"},"longitude":"-0.072028"},"context":"","outcome_status":null,"persistent_id":"","id":47864744,"location_subtype":"","month":"2016-03"},{"category":"anti-social-behaviour","location_type":"Force","location":{"latitude":"51.536366","street":{"id":964862,"name":"On or near Mary Terrace"},"longitude":"-0.141518"},"context":"","outcome_status":null,"persistent_id":"","id":47899954,"location_subtype":"","month":"2016-03"},{"category":"anti-social-behaviour","location_type":"Force","location":{"latitude":"51.578014","street":{"id":975249,"name":"On or near High Road"},"longitude":"-0.073155"},"context":"","outcome_status":null,"persistent_id":"","id":47864747,"location_subtype":"","month":"2016-03"},{"category":"anti-social-behaviour","location_type":"Force","location":{"latitude":"51.575757","street":{"id":975269,"name":"On or near Allan Barclay Close"},"longitude":"-0.073178"},"context":"","outcome_status":null,"persistent_id":"","id":47864749,"location_subtype":"","month":"2016-03"},{"category":"anti-social-behaviour","location_type":"Force","location":{"latitude":"51.517892","street":{"id":957082,"name":"On or near Junction Place"},"longitude":"-0.171039"},"context":"","outcome_status":null,"persistent_id":"","id":47905223,"location_subtype":"","month":"2016-03"},{"category":"anti-social-behaviour","location_type":"Force","location":{"latitude":"51.564892","street":{"id":971846,"name":"On or near Myddleton Avenue"},"longitude":"-0.095627"},"context":"","outcome_status":null,"persistent_id":"","id":47899621,"location_subtype":"","month":"2016-03"},{"category":"anti-social-behaviour","location_type":"Force","location":{"latitude":"51.578734","street":{"id":975175,"name":"On or near Gladesmore Road"},"longitude":"-0.068824"},"context":"","outcome_status":null,"persistent_id":"","id":47866837,"location_subtype":"","month":"2016-03"},{"category":"anti-social-behaviour","location_type":"Force","location":{"latitude":"51.537807","street":{"id":964835,"name":"On or near Parking Area"},"longitude":"-0.138791"},"context":"","outcome_status":null,"persistent_id":"","id":47899838,"location_subtype":"","month":"2016-03"},{"category":"anti-social-behaviour","location_type":"Force","location":{"latitude":"51.537148","street":{"id":964857,"name":"On or near Pratt Mews"},"longitude":"-0.140347"},"context":"","outcome_status":null,"persistent_id":"","id":47899851,"location_subtype":"","month":"2016-03"},{"category":"anti-social-behaviour","location_type":"Force","location":{"latitude":"51.516524","street":{"id":957057,"name":"On or near Norfolk Place"},"longitude":"-0.172117"},"context":"","outcome_status":null,"persistent_id":"","id":47905226,"location_subtype":"","month":"2016-03"},{"category":"anti-social-behaviour","location_type":"Force","location":{"latitude":"51.584513","street":{"id":977937,"name":"On or near Runcorn Close"},"longitude":"-0.058301"},"context":"","outcome_status":null,"persistent_id":"","id":47866641,"location_subtype":"","month":"2016-03"},{"category":"anti-social-behaviour","location_type":"Force","location":{"latitude":"51.514721","street":{"id":957047,"name":"On or near Sussex Gardens"},"longitude":"-0.173544"},"context":"","outcome_status":null,"persistent_id":"","id":47905249,"location_subtype":"","month":"2016-03"},{"category":"anti-social-behaviour","location_type":"Force","location":{"latitude":"51.589034","street":{"id":977899,"name":"On or near Parking Area"},"longitude":"-0.056520"},"context":"","outcome_status":null,"persistent_id":"","id":47866644,"location_subtype":"","month":"2016-03"},{"category":"anti-social-behaviour","location_type":"Force","location":{"latitude":"51.584329","street":{"id":978104,"name":"On or near Fountayne Road"},"longitude":"-0.062899"},"context":"","outcome_status":null,"persistent_id":"","id":47866693,"location_subtype":"","month":"2016-03"},{"category":"anti-social-behaviour","location_type":"Force","location":{"latitude":"51.503508","street":{"id":952718,"name":"On or near York House Place"},"longitude":"-0.191557"},"context":"","outcome_status":null,"persistent_id":"","id":47902060,"location_subtype":"","month":"2016-03"},{"category":"anti-social-behaviour","location_type":"Force","location":{"latitude":"51.579621","street":{"id":975168,"name":"On or near Lemsford Close"},"longitude":"-0.063705"},"context":"","outcome_status":null,"persistent_id":"","id":47866698,"location_subtype":"","month":"2016-03"},{"category":"anti-social-behaviour","location_type":"Force","location":{"latitude":"51.514721","street":{"id":957047,"name":"On or near Sussex Gardens"},"longitude":"-0.173544"},"context":"","outcome_status":null,"persistent_id":"","id":47905250,"location_subtype":"","month":"2016-03"},{"category":"anti-social-behaviour","location_type":"Force","location":{"latitude":"51.534727","street":{"id":964890,"name":"On or near Beatty Street"},"longitude":"-0.140243"},"context":"","outcome_status":null,"persistent_id":"","id":47899853,"location_subtype":"","month":"2016-03"},{"category":"anti-social-behaviour","location_type":"Force","location":{"latitude":"51.577953","street":{"id":975144,"name":"On or near Wellington Avenue"},"longitude":"-0.066721"},"context":"","outcome_status":null,"persistent_id":"","id":47866772,"location_subtype":"","month":"2016-03"},{"category":"anti-social-behaviour","location_type":"Force","location":{"latitude":"51.577953","street":{"id":975144,"name":"On or near Wellington Avenue"},"longitude":"-0.066721"},"context":"","outcome_status":null,"persistent_id":"","id":47866775,"location_subtype":"","month":"2016-03"},{"category":"anti-social-behaviour","location_type":"Force","location":{"latitude":"51.534727","street":{"id":964890,"name":"On or near Beatty Street"},"longitude":"-0.140243"},"context":"","outcome_status":null,"persistent_id":"","id":47899856,"location_subtype":"","month":"2016-03"},{"category":"anti-social-behaviour","location_type":"Force","location":{"latitude":"51.534727","street":{"id":964890,"name":"On or near Beatty Street"},"longitude":"-0.140243"},"context":"","outcome_status":null,"persistent_id":"","id":47899859,"location_subtype":"","month":"2016-03"},{"category":"anti-social-behaviour","location_type":"Force","location":{"latitude":"51.552415","street":{"id":968258,"name":"On or near Sturmer Way"},"longitude":"-0.117669"},"context":"","outcome_status":null,"persistent_id":"","id":47889050,"location_subtype":"","month":"2016-03"},{"category":"anti-social-behaviour","location_type":"Force","location":{"latitude":"51.472576","street":{"id":945030,"name":"On or near Stanton Road"},"longitude":"-0.249196"},"context":"","outcome_status":null,"persistent_id":"","id":47873391,"location_subtype":"","month":"2016-03"},{"category":"anti-social-behaviour","location_type":"Force","location":{"latitude":"51.534727","street":{"id":964890,"name":"On or near Beatty Street"},"longitude":"-0.140243"},"context":"","outcome_status":null,"persistent_id":"","id":47899861,"location_subtype":"","month":"2016-03"},{"category":"anti-social-behaviour","location_type":"Force","location":{"latitude":"51.576104","street":{"id":975248,"name":"On or near Hillside Road"},"longitude":"-0.074015"},"context":"","outcome_status":null,"persistent_id":"","id":47874580,"location_subtype":"","month":"2016-03"},{"category":"anti-social-behaviour","location_type":"Force","location":{"latitude":"51.536228","street":{"id":964886,"name":"On or near Camden High Street"},"longitude":"-0.140168"},"context":"","outcome_status":null,"persistent_id":"","id":47899899,"location_subtype":"","month":"2016-03"},{"category":"anti-social-behaviour","location_type":"Force","location":{"latitude":"51.536228","street":{"id":964886,"name":"On or near Camden High Street"},"longitude":"-0.140168"},"context":"","outcome_status":null,"persistent_id":"","id":47899901,"location_subtype":"","month":"2016-03"},{"category":"anti-social-behaviour","location_type":"Force","location":{"latitude":"51.576086","street":{"id":975260,"name":"On or near Daleview Road"},"longitude":"-0.077335"},"context":"","outcome_status":null,"persistent_id":"","id":47874629,"location_subtype":"","month":"2016-03"},{"category":"anti-social-behaviour","location_type":"Force","location":{"latitude":"51.536228","street":{"id":964886,"name":"On or near Camden High Street"},"longitude":"-0.140168"},"context":"","outcome_status":null,"persistent_id":"","id":47899905,"location_subtype":"","month":"2016-03"},{"category":"anti-social-behaviour","location_type":"Force","location":{"latitude":"51.557554","street":{"id":968413,"name":"On or near Legard Road"},"longitude":"-0.098977"},"context":"","outcome_status":null,"persistent_id":"","id":47881916,"location_subtype":"","month":"2016-03"},{"category":"anti-social-behaviour","location_type":"Force","location":{"latitude":"51.557554","street":{"id":968413,"name":"On or near Legard Road"},"longitude":"-0.098977"},"context":"","outcome_status":null,"persistent_id":"","id":47881918,"location_subtype":"","month":"2016-03"},{"category":"anti-social-behaviour","location_type":"Force","location":{"latitude":"51.557554","street":{"id":968413,"name":"On or near Legard Road"},"longitude":"-0.098977"},"context":"","outcome_status":null,"persistent_id":"","id":47881919,"location_subtype":"","month":"2016-03"},{"category":"anti-social-behaviour","location_type":"Force","location":{"latitude":"51.536228","street":{"id":964886,"name":"On or near Camden High Street"},"longitude":"-0.140168"},"context":"","outcome_status":null,"persistent_id":"","id":47899907,"location_subtype":"","month":"2016-03"},{"category":"anti-social-behaviour","location_type":"Force","location":{"latitude":"51.535285","street":{"id":964955,"name":"On or near Crowndale Road"},"longitude":"-0.135145"},"context":"","outcome_status":null,"persistent_id":"","id":47902016,"location_subtype":"","month":"2016-03"},{"category":"anti-social-behaviour","location_type":"Force","location":{"latitude":"51.557554","street":{"id":968413,"name":"On or near Legard Road"},"longitude":"-0.098977"},"context":"","outcome_status":null,"persistent_id":"","id":47881920,"location_subtype":"","month":"2016-03"},{"category":"anti-social-behaviour","location_type":"Force","location":{"latitude":"51.536228","street":{"id":964886,"name":"On or near Camden High Street"},"longitude":"-0.140168"},"context":"","outcome_status":null,"persistent_id":"","id":47899910,"location_subtype":"","month":"2016-03"},{"category":"anti-social-behaviour","location_type":"Force","location":{"latitude":"51.551747","street":{"id":968212,"name":"On or near Drayton Park"},"longitude":"-0.107412"},"context":"","outcome_status":null,"persistent_id":"","id":47883228,"location_subtype":"","month":"2016-03"},{"category":"anti-social-behaviour","location_type":"Force","location":{"latitude":"51.557574","street":{"id":968188,"name":"On or near Sidings Mews"},"longitude":"-0.109623"},"context":"","outcome_status":null,"persistent_id":"","id":47883240,"location_subtype":"","month":"2016-03"},{"category":"anti-social-behaviour","location_type":"Force","location":{"latitude":"51.536228","street":{"id":964886,"name":"On or near Camden High Street"},"longitude":"-0.140168"},"context":"","outcome_status":null,"persistent_id":"","id":47899912,"location_subtype":"","month":"2016-03"},{"category":"anti-social-behaviour","location_type":"Force","location":{"latitude":"51.552582","street":{"id":968213,"name":"On or near Courtney Road"},"longitude":"-0.108488"},"context":"","outcome_status":null,"persistent_id":"","id":47883259,"location_subtype":"","month":"2016-03"},{"category":"anti-social-behaviour","location_type":"Force","location":{"latitude":"51.551283","street":{"id":968204,"name":"On or near Hartnoll Street"},"longitude":"-0.112105"},"context":"","outcome_status":null,"persistent_id":"","id":47883338,"location_subtype":"","month":"2016-03"},{"category":"anti-social-behaviour","location_type":"Force","location":{"latitude":"51.555296","street":{"id":968200,"name":"On or near Hornsey Road"},"longitude":"-0.111160"},"context":"","outcome_status":null,"persistent_id":"","id":47883340,"location_subtype":"","month":"2016-03"},{"category":"anti-social-behaviour","location_type":"Force","location":{"latitude":"51.552506","street":{"id":968187,"name":"On or near Slaney Place"},"longitude":"-0.111578"},"context":"","outcome_status":null,"persistent_id":"","id":47883346,"location_subtype":"","month":"2016-03"},{"category":"anti-social-behaviour","location_type":"Force","location":{"latitude":"51.489920","street":{"id":950411,"name":"On or near Yeldham Road"},"longitude":"-0.218599"},"context":"","outcome_status":null,"persistent_id":"","id":47890210,"location_subtype":"","month":"2016-03"},{"category":"anti-social-behaviour","location_type":"Force","location":{"latitude":"51.529100","street":{"id":960621,"name":"On or near Chester Terrace"},"longitude":"-0.145461"},"context":"","outcome_status":null,"persistent_id":"","id":47900204,"location_subtype":"","month":"2016-03"},{"category":"anti-social-behaviour","location_type":"Force","location":{"latitude":"51.599743","street":{"id":981917,"name":"On or near Mcentee Avenue"},"longitude":"-0.035385"},"context":"","outcome_status":null,"persistent_id":"","id":47891008,"location_subtype":"","month":"2016-03"},{"category":"anti-social-behaviour","location_type":"Force","location":{"latitude":"51.530859","street":{"id":960692,"name":"On or near Augustus Street"},"longitude":"-0.141814"},"context":"","outcome_status":null,"persistent_id":"","id":47899987,"location_subtype":"","month":"2016-03"},{"category":"anti-social-behaviour","location_type":"Force","location":{"latitude":"51.536710","street":{"id":964877,"name":"On or near Delancey Passage"},"longitude":"-0.141648"},"context":"","outcome_status":null,"persistent_id":"","id":47900037,"location_subtype":"","month":"2016-03"},{"category":"anti-social-behaviour","location_type":"Force","location":{"latitude":"51.534799","street":{"id":964860,"name":"On or near Mornington Street"},"longitude":"-0.142490"},"context":"","outcome_status":null,"persistent_id":"","id":47900051,"location_subtype":"","month":"2016-03"},{"category":"anti-social-behaviour","location_type":"Force","location":{"latitude":"51.530702","street":{"id":960605,"name":"On or near Redhill Street"},"longitude":"-0.143824"},"context":"","outcome_status":null,"persistent_id":"","id":47900095,"location_subtype":"","month":"2016-03"},{"category":"anti-social-behaviour","location_type":"Force","location":{"latitude":"51.530030","street":{"id":960630,"name":"On or near Albany Street"},"longitude":"-0.144573"},"context":"","outcome_status":null,"persistent_id":"","id":47900121,"location_subtype":"","month":"2016-03"},{"category":"anti-social-behaviour","location_type":"Force","location":{"latitude":"51.533848","street":{"id":965006,"name":"On or near Park Village East"},"longitude":"-0.143769"},"context":"","outcome_status":null,"persistent_id":"","id":47900129,"location_subtype":"","month":"2016-03"},{"category":"anti-social-behaviour","location_type":"Force","location":{"latitude":"51.573669","street":{"id":975235,"name":"On or near Rav Pinter Close"},"longitude":"-0.075229"},"context":"","outcome_status":null,"persistent_id":"","id":47899240,"location_subtype":"","month":"2016-03"},{"category":"anti-social-behaviour","location_type":"Force","location":{"latitude":"51.552506","street":{"id":968187,"name":"On or near Slaney Place"},"longitude":"-0.111578"},"context":"","outcome_status":null,"persistent_id":"","id":47883349,"location_subtype":"","month":"2016-03"},{"category":"anti-social-behaviour","location_type":"Force","location":{"latitude":"51.552506","street":{"id":968187,"name":"On or near Slaney Place"},"longitude":"-0.111578"},"context":"","outcome_status":null,"persistent_id":"","id":47883351,"location_subtype":"","month":"2016-03"},{"category":"anti-social-behaviour","location_type":"Force","location":{"latitude":"51.573669","street":{"id":975235,"name":"On or near Rav Pinter Close"},"longitude":"-0.075229"},"context":"","outcome_status":null,"persistent_id":"","id":47899246,"location_subtype":"","month":"2016-03"},{"category":"anti-social-behaviour","location_type":"Force","location":{"latitude":"51.564876","street":{"id":971889,"name":"On or near Lordship Park"},"longitude":"-0.088586"},"context":"","outcome_status":null,"persistent_id":"","id":47899543,"location_subtype":"","month":"2016-03"},{"category":"anti-social-behaviour","location_type":"Force","location":{"latitude":"51.497153","street":{"id":952792,"name":"On or near Petrol Station"},"longitude":"-0.206374"},"context":"","outcome_status":null,"persistent_id":"","id":47904057,"location_subtype":"","month":"2016-03"},{"category":"anti-social-behaviour","location_type":"Force","location":{"latitude":"51.497153","street":{"id":952792,"name":"On or near Petrol Station"},"longitude":"-0.206374"},"context":"","outcome_status":null,"persistent_id":"","id":47904046,"location_subtype":"","month":"2016-03"},{"category":"anti-social-behaviour","location_type":"Force","location":{"latitude":"51.534773","street":{"id":964893,"name":"On or near Bayham Street"},"longitude":"-0.137473"},"context":"","outcome_status":null,"persistent_id":"","id":47896823,"location_subtype":"","month":"2016-03"},{"category":"anti-social-behaviour","location_type":"Force","location":{"latitude":"51.497153","street":{"id":952792,"name":"On or near Petrol Station"},"longitude":"-0.206374"},"context":"","outcome_status":null,"persistent_id":"","id":47904044,"location_subtype":"","month":"2016-03"},{"category":"anti-social-behaviour","location_type":"Force","location":{"latitude":"51.550990","street":{"id":923470,"name":"On or near Eden Grove"},"longitude":"-0.113444"},"context":"","outcome_status":null,"persistent_id":"","id":47883371,"location_subtype":"","month":"2016-03"},{"category":"anti-social-behaviour","location_type":"Force","location":{"latitude":"51.519006","street":{"id":956783,"name":"On or near Wyndham Yard"},"longitude":"-0.161726"},"context":"","outcome_status":null,"persistent_id":"","id":47902871,"location_subtype":"","month":"2016-03"},{"category":"anti-social-behaviour","location_type":"Force","location":{"latitude":"51.524365","street":{"id":960406,"name":"On or near Ivor Place"},"longitude":"-0.161179"},"context":"","outcome_status":null,"persistent_id":"","id":47902869,"location_subtype":"","month":"2016-03"},{"category":"anti-social-behaviour","location_type":"Force","location":{"latitude":"51.522848","street":{"id":960416,"name":"On or near Dorset Square"},"longitude":"-0.160173"},"context":"","outcome_status":null,"persistent_id":"","id":47902848,"location_subtype":"","month":"2016-03"},{"category":"anti-social-behaviour","location_type":"Force","location":{"latitude":"51.520055","street":{"id":960459,"name":"On or near Durweston Street"},"longitude":"-0.159810"},"context":"","outcome_status":null,"persistent_id":"","id":47902836,"location_subtype":"","month":"2016-03"},{"category":"anti-social-behaviour","location_type":"Force","location":{"latitude":"51.523310","street":{"id":960415,"name":"On or near Glentworth Street"},"longitude":"-0.159247"},"context":"","outcome_status":null,"persistent_id":"","id":47902833,"location_subtype":"","month":"2016-03"},{"category":"anti-social-behaviour","location_type":"Force","location":{"latitude":"51.523310","street":{"id":960415,"name":"On or near Glentworth Street"},"longitude":"-0.159247"},"context":"","outcome_status":null,"persistent_id":"","id":47902829,"location_subtype":"","month":"2016-03"},{"category":"anti-social-behaviour","location_type":"Force","location":{"latitude":"51.564876","street":{"id":971889,"name":"On or near Lordship Park"},"longitude":"-0.088586"},"context":"","outcome_status":null,"persistent_id":"","id":47899546,"location_subtype":"","month":"2016-03"},{"category":"anti-social-behaviour","location_type":"Force","location":{"latitude":"51.523310","street":{"id":960415,"name":"On or near Glentworth Street"},"longitude":"-0.159247"},"context":"","outcome_status":null,"persistent_id":"","id":47902827,"location_subtype":"","month":"2016-03"},{"category":"anti-social-behaviour","location_type":"Force","location":{"latitude":"51.520819","street":{"id":960457,"name":"On or near Gloucester Place"},"longitude":"-0.159246"},"context":"","outcome_status":null,"persistent_id":"","id":47902821,"location_subtype":"","month":"2016-03"},{"category":"anti-social-behaviour","location_type":"Force","location":{"latitude":"51.520819","street":{"id":960457,"name":"On or near Gloucester Place"},"longitude":"-0.159246"},"context":"","outcome_status":null,"persistent_id":"","id":47902819,"location_subtype":"","month":"2016-03"},{"category":"anti-social-behaviour","location_type":"Force","location":{"latitude":"51.520819","street":{"id":960457,"name":"On or near Gloucester Place"},"longitude":"-0.159246"},"context":"","outcome_status":null,"persistent_id":"","id":47902812,"location_subtype":"","month":"2016-03"},{"category":"anti-social-behaviour","location_type":"Force","location":{"latitude":"51.522893","street":{"id":960398,"name":"On or near Melcombe Street"},"longitude":"-0.159047"},"context":"","outcome_status":null,"persistent_id":"","id":47902809,"location_subtype":"","month":"2016-03"},{"category":"anti-social-behaviour","location_type":"Force","location":{"latitude":"51.522893","street":{"id":960398,"name":"On or near Melcombe Street"},"longitude":"-0.159047"},"context":"","outcome_status":null,"persistent_id":"","id":47902806,"location_subtype":"","month":"2016-03"},{"category":"anti-social-behaviour","location_type":"Force","location":{"latitude":"51.564876","street":{"id":971889,"name":"On or near Lordship Park"},"longitude":"-0.088586"},"context":"","outcome_status":null,"persistent_id":"","id":47899547,"location_subtype":"","month":"2016-03"},{"category":"anti-social-behaviour","location_type":"Force","location":{"latitude":"51.564261","street":{"id":971887,"name":"On or near Queen Elizabeth's Close"},"longitude":"-0.088338"},"context":"","outcome_status":null,"persistent_id":"","id":47899549,"location_subtype":"","month":"2016-03"},{"category":"anti-social-behaviour","location_type":"Force","location":{"latitude":"51.564756","street":{"id":971888,"name":"On or near Lordship Park Mews"},"longitude":"-0.091159"},"context":"","outcome_status":null,"persistent_id":"","id":47899575,"location_subtype":"","month":"2016-03"},{"category":"anti-social-behaviour","location_type":"Force","location":{"latitude":"51.522893","street":{"id":960398,"name":"On or near Melcombe Street"},"longitude":"-0.159047"},"context":"","outcome_status":null,"persistent_id":"","id":47902804,"location_subtype":"","month":"2016-03"},{"category":"anti-social-behaviour","location_type":"Force","location":{"latitude":"51.522893","street":{"id":960398,"name":"On or near Melcombe Street"},"longitude":"-0.159047"},"context":"","outcome_status":null,"persistent_id":"","id":47902800,"location_subtype":"","month":"2016-03"},{"category":"anti-social-behaviour","location_type":"Force","location":{"latitude":"51.564756","street":{"id":971888,"name":"On or near Lordship Park Mews"},"longitude":"-0.091159"},"context":"","outcome_status":null,"persistent_id":"","id":47899578,"location_subtype":"","month":"2016-03"},{"category":"anti-social-behaviour","location_type":"Force","location":{"latitude":"51.564756","street":{"id":971888,"name":"On or near Lordship Park Mews"},"longitude":"-0.091159"},"context":"","outcome_status":null,"persistent_id":"","id":47899580,"location_subtype":"","month":"2016-03"},{"category":"anti-social-behaviour","location_type":"Force","location":{"latitude":"51.523565","street":{"id":960388,"name":"On or near Siddons Lane"},"longitude":"-0.158890"},"context":"","outcome_status":null,"persistent_id":"","id":47902797,"location_subtype":"","month":"2016-03"},{"category":"anti-social-behaviour","location_type":"Force","location":{"latitude":"51.574657","street":{"id":975247,"name":"On or near Holmdale Terrace"},"longitude":"-0.076847"},"context":"","outcome_status":null,"persistent_id":"","id":47899294,"location_subtype":"","month":"2016-03"},{"category":"anti-social-behaviour","location_type":"Force","location":{"latitude":"51.520596","street":{"id":960436,"name":"On or near York Street"},"longitude":"-0.158751"},"context":"","outcome_status":null,"persistent_id":"","id":47902787,"location_subtype":"","month":"2016-03"},{"category":"anti-social-behaviour","location_type":"Force","location":{"latitude":"51.520596","street":{"id":960436,"name":"On or near York Street"},"longitude":"-0.158751"},"context":"","outcome_status":null,"persistent_id":"","id":47902785,"location_subtype":"","month":"2016-03"},{"category":"anti-social-behaviour","location_type":"Force","location":{"latitude":"51.521326","street":{"id":960467,"name":"On or near Bickenhall Street"},"longitude":"-0.158332"},"context":"","outcome_status":null,"persistent_id":"","id":47902782,"location_subtype":"","month":"2016-03"},{"category":"anti-social-behaviour","location_type":"Force","location":{"latitude":"51.522324","street":{"id":960429,"name":"On or near Nightclub"},"longitude":"-0.158306"},"context":"","outcome_status":null,"persistent_id":"","id":47902779,"location_subtype":"","month":"2016-03"},{"category":"anti-social-behaviour","location_type":"Force","location":{"latitude":"51.521326","street":{"id":960467,"name":"On or near Bickenhall Street"},"longitude":"-0.158332"},"context":"","outcome_status":null,"persistent_id":"","id":47902776,"location_subtype":"","month":"2016-03"},{"category":"anti-social-behaviour","location_type":"Force","location":{"latitude":"51.523565","street":{"id":960388,"name":"On or near Siddons Lane"},"longitude":"-0.158890"},"context":"","outcome_status":null,"persistent_id":"","id":47902773,"location_subtype":"","month":"2016-03"},{"category":"anti-social-behaviour","location_type":"Force","location":{"latitude":"51.525064","street":{"id":960419,"name":"On or near Clarence Terrace"},"longitude":"-0.159277"},"context":"","outcome_status":null,"persistent_id":"","id":47902770,"location_subtype":"","month":"2016-03"},{"category":"anti-social-behaviour","location_type":"Force","location":{"latitude":"51.523565","street":{"id":960388,"name":"On or near Siddons Lane"},"longitude":"-0.158890"},"context":"","outcome_status":null,"persistent_id":"","id":47902767,"location_subtype":"","month":"2016-03"},{"category":"anti-social-behaviour","location_type":"Force","location":{"latitude":"51.523565","street":{"id":960388,"name":"On or near Siddons Lane"},"longitude":"-0.158890"},"context":"","outcome_status":null,"persistent_id":"","id":47902765,"location_subtype":"","month":"2016-03"},{"category":"anti-social-behaviour","location_type":"Force","location":{"latitude":"51.523377","street":{"id":960349,"name":"On or near York Terrace West"},"longitude":"-0.154328"},"context":"","outcome_status":null,"persistent_id":"","id":47900697,"location_subtype":"","month":"2016-03"},{"category":"anti-social-behaviour","location_type":"Force","location":{"latitude":"51.523377","street":{"id":960349,"name":"On or near York Terrace West"},"longitude":"-0.154328"},"context":"","outcome_status":null,"persistent_id":"","id":47900698,"location_subtype":"","month":"2016-03"},{"category":"anti-social-behaviour","location_type":"Force","location":{"latitude":"51.523565","street":{"id":960388,"name":"On or near Siddons Lane"},"longitude":"-0.158890"},"context":"","outcome_status":null,"persistent_id":"","id":47902762,"location_subtype":"","month":"2016-03"},{"category":"anti-social-behaviour","location_type":"Force","location":{"latitude":"51.523565","street":{"id":960388,"name":"On or near Siddons Lane"},"longitude":"-0.158890"},"context":"","outcome_status":null,"persistent_id":"","id":47902758,"location_subtype":"","month":"2016-03"},{"category":"anti-social-behaviour","location_type":"Force","location":{"latitude":"51.534773","street":{"id":964893,"name":"On or near Bayham Street"},"longitude":"-0.137473"},"context":"","outcome_status":null,"persistent_id":"","id":47896825,"location_subtype":"","month":"2016-03"},{"category":"anti-social-behaviour","location_type":"Force","location":{"latitude":"51.549044","street":{"id":968157,"name":"On or near Rhodes Street"},"longitude":"-0.113236"},"context":"","outcome_status":null,"persistent_id":"","id":47883378,"location_subtype":"","month":"2016-03"},{"category":"anti-social-behaviour","location_type":"Force","location":{"latitude":"51.521207","street":{"id":960454,"name":"On or near Highworth Street"},"longitude":"-0.166784"},"context":"","outcome_status":null,"persistent_id":"","id":47903003,"location_subtype":"","month":"2016-03"},{"category":"anti-social-behaviour","location_type":"Force","location":{"latitude":"51.516656","street":{"id":956770,"name":"On or near Burwood Place"},"longitude":"-0.166145"},"context":"","outcome_status":null,"persistent_id":"","id":47902997,"location_subtype":"","month":"2016-03"},{"category":"anti-social-behaviour","location_type":"Force","location":{"latitude":"51.520774","street":{"id":960463,"name":"On or near Cosway Street"},"longitude":"-0.165533"},"context":"","outcome_status":null,"persistent_id":"","id":47902996,"location_subtype":"","month":"2016-03"},{"category":"anti-social-behaviour","location_type":"Force","location":{"latitude":"51.521580","street":{"id":960481,"name":"On or near Porter Street"},"longitude":"-0.156736"},"context":"","outcome_status":null,"persistent_id":"","id":47900712,"location_subtype":"","month":"2016-03"},{"category":"anti-social-behaviour","location_type":"Force","location":{"latitude":"51.519162","street":{"id":960453,"name":"On or near Homer Row"},"longitude":"-0.165396"},"context":"","outcome_status":null,"persistent_id":"","id":47902994,"location_subtype":"","month":"2016-03"},{"category":"anti-social-behaviour","location_type":"Force","location":{"latitude":"51.547343","street":{"id":968153,"name":"On or near Westbourne Road"},"longitude":"-0.113710"},"context":"","outcome_status":null,"persistent_id":"","id":47883382,"location_subtype":"","month":"2016-03"},{"category":"anti-social-behaviour","location_type":"Force","location":{"latitude":"51.519162","street":{"id":960453,"name":"On or near Homer Row"},"longitude":"-0.165396"},"context":"","outcome_status":null,"persistent_id":"","id":47902993,"location_subtype":"","month":"2016-03"},{"category":"anti-social-behaviour","location_type":"Force","location":{"latitude":"51.521789","street":{"id":960469,"name":"On or near Bendall Mews"},"longitude":"-0.165492"},"context":"","outcome_status":null,"persistent_id":"","id":47902991,"location_subtype":"","month":"2016-03"},{"category":"anti-social-behaviour","location_type":"Force","location":{"latitude":"51.521789","street":{"id":960469,"name":"On or near Bendall Mews"},"longitude":"-0.165492"},"context":"","outcome_status":null,"persistent_id":"","id":47902987,"location_subtype":"","month":"2016-03"},{"category":"anti-social-behaviour","location_type":"Force","location":{"latitude":"51.517677","street":{"id":956801,"name":"On or near Brendon Street"},"longitude":"-0.165340"},"context":"","outcome_status":null,"persistent_id":"","id":47902986,"location_subtype":"","month":"2016-03"},{"category":"anti-social-behaviour","location_type":"Force","location":{"latitude":"51.522589","street":{"id":960402,"name":"On or near Lisson Grove"},"longitude":"-0.165431"},"context":"","outcome_status":null,"persistent_id":"","id":47902982,"location_subtype":"","month":"2016-03"},{"category":"anti-social-behaviour","location_type":"Force","location":{"latitude":"51.522254","street":{"id":960345,"name":"On or near Pedestrian Subway"},"longitude":"-0.157271"},"context":"","outcome_status":null,"persistent_id":"","id":47900713,"location_subtype":"","month":"2016-03"},{"category":"anti-social-behaviour","location_type":"Force","location":{"latitude":"51.523565","street":{"id":960388,"name":"On or near Siddons Lane"},"longitude":"-0.158890"},"context":"","outcome_status":null,"persistent_id":"","id":47902755,"location_subtype":"","month":"2016-03"},{"category":"anti-social-behaviour","location_type":"Force","location":{"latitude":"51.548913","street":{"id":968237,"name":"On or near Piper Close"},"longitude":"-0.116285"},"context":"","outcome_status":null,"persistent_id":"","id":47883404,"location_subtype":"","month":"2016-03"},{"category":"anti-social-behaviour","location_type":"Force","location":{"latitude":"51.546425","street":{"id":968299,"name":"On or near Armour Close"},"longitude":"-0.115883"},"context":"","outcome_status":null,"persistent_id":"","id":47883407,"location_subtype":"","month":"2016-03"},{"category":"anti-social-behaviour","location_type":"Force","location":{"latitude":"51.519657","street":{"id":960342,"name":"On or near Shopping Area"},"longitude":"-0.168849"},"context":"","outcome_status":null,"persistent_id":"","id":47903114,"location_subtype":"","month":"2016-03"},{"category":"anti-social-behaviour","location_type":"Force","location":{"latitude":"51.546425","street":{"id":968299,"name":"On or near Armour Close"},"longitude":"-0.115883"},"context":"","outcome_status":null,"persistent_id":"","id":47883408,"location_subtype":"","month":"2016-03"},{"category":"anti-social-behaviour","location_type":"Force","location":{"latitude":"51.519657","street":{"id":960342,"name":"On or near Shopping Area"},"longitude":"-0.168849"},"context":"","outcome_status":null,"persistent_id":"","id":47903111,"location_subtype":"","month":"2016-03"},{"category":"anti-social-behaviour","location_type":"Force","location":{"latitude":"51.519657","street":{"id":960342,"name":"On or near Shopping Area"},"longitude":"-0.168849"},"context":"","outcome_status":null,"persistent_id":"","id":47903108,"location_subtype":"","month":"2016-03"},{"category":"anti-social-behaviour","location_type":"Force","location":{"latitude":"51.517199","street":{"id":957081,"name":"On or near Praed Street"},"longitude":"-0.172739"},"context":"","outcome_status":null,"persistent_id":"","id":47900838,"location_subtype":"","month":"2016-03"},{"category":"anti-social-behaviour","location_type":"Force","location":{"latitude":"51.561783","street":{"id":971838,"name":"On or near Vivian Comma Close"},"longitude":"-0.100215"},"context":"","outcome_status":null,"persistent_id":"","id":47882944,"location_subtype":"","month":"2016-03"},{"category":"anti-social-behaviour","location_type":"Force","location":{"latitude":"51.519657","street":{"id":960342,"name":"On or near Shopping Area"},"longitude":"-0.168849"},"context":"","outcome_status":null,"persistent_id":"","id":47903106,"location_subtype":"","month":"2016-03"},{"category":"anti-social-behaviour","location_type":"Force","location":{"latitude":"51.517545","street":{"id":957089,"name":"On or near Rainsford Street"},"longitude":"-0.169554"},"context":"","outcome_status":null,"persistent_id":"","id":47903090,"location_subtype":"","month":"2016-03"},{"category":"anti-social-behaviour","location_type":"Force","location":{"latitude":"51.517545","street":{"id":957089,"name":"On or near Rainsford Street"},"longitude":"-0.169554"},"context":"","outcome_status":null,"persistent_id":"","id":47903087,"location_subtype":"","month":"2016-03"},{"category":"anti-social-behaviour","location_type":"Force","location":{"latitude":"51.557317","street":{"id":968429,"name":"On or near Elphinstone Street"},"longitude":"-0.100978"},"context":"","outcome_status":null,"persistent_id":"","id":47882950,"location_subtype":"","month":"2016-03"},{"category":"anti-social-behaviour","location_type":"Force","location":{"latitude":"51.517545","street":{"id":957089,"name":"On or near Rainsford Street"},"longitude":"-0.169554"},"context":"","outcome_status":null,"persistent_id":"","id":47903084,"location_subtype":"","month":"2016-03"},{"category":"anti-social-behaviour","location_type":"Force","location":{"latitude":"51.517545","street":{"id":957089,"name":"On or near Rainsford Street"},"longitude":"-0.169554"},"context":"","outcome_status":null,"persistent_id":"","id":47903081,"location_subtype":"","month":"2016-03"},{"category":"anti-social-behaviour","location_type":"Force","location":{"latitude":"51.519392","street":{"id":960324,"name":"On or near Harbet Road"},"longitude":"-0.170907"},"context":"","outcome_status":null,"persistent_id":"","id":47905212,"location_subtype":"","month":"2016-03"},{"category":"anti-social-behaviour","location_type":"Force","location":{"latitude":"51.516610","street":{"id":957051,"name":"On or near Southwick Mews"},"longitude":"-0.171263"},"context":"","outcome_status":null,"persistent_id":"","id":47905219,"location_subtype":"","month":"2016-03"},{"category":"anti-social-behaviour","location_type":"Force","location":{"latitude":"51.516524","street":{"id":957057,"name":"On or near Norfolk Place"},"longitude":"-0.172117"},"context":"","outcome_status":null,"persistent_id":"","id":47905224,"location_subtype":"","month":"2016-03"},{"category":"anti-social-behaviour","location_type":"Force","location":{"latitude":"51.516524","street":{"id":957057,"name":"On or near Norfolk Place"},"longitude":"-0.172117"},"context":"","outcome_status":null,"persistent_id":"","id":47905228,"location_subtype":"","month":"2016-03"},{"category":"anti-social-behaviour","location_type":"Force","location":{"latitude":"51.516524","street":{"id":957057,"name":"On or near Norfolk Place"},"longitude":"-0.172117"},"context":"","outcome_status":null,"persistent_id":"","id":47905229,"location_subtype":"","month":"2016-03"},{"category":"anti-social-behaviour","location_type":"Force","location":{"latitude":"51.514721","street":{"id":957047,"name":"On or near Sussex Gardens"},"longitude":"-0.173544"},"context":"","outcome_status":null,"persistent_id":"","id":47905240,"location_subtype":"","month":"2016-03"},{"category":"anti-social-behaviour","location_type":"Force","location":{"latitude":"51.514721","street":{"id":957047,"name":"On or near Sussex Gardens"},"longitude":"-0.173544"},"context":"","outcome_status":null,"persistent_id":"","id":47905242,"location_subtype":"","month":"2016-03"},{"category":"anti-social-behaviour","location_type":"Force","location":{"latitude":"51.514721","street":{"id":957047,"name":"On or near Sussex Gardens"},"longitude":"-0.173544"},"context":"","outcome_status":null,"persistent_id":"","id":47905244,"location_subtype":"","month":"2016-03"},{"category":"anti-social-behaviour","location_type":"Force","location":{"latitude":"51.514721","street":{"id":957047,"name":"On or near Sussex Gardens"},"longitude":"-0.173544"},"context":"","outcome_status":null,"persistent_id":"","id":47905245,"location_subtype":"","month":"2016-03"},{"category":"anti-social-behaviour","location_type":"Force","location":{"latitude":"51.514721","street":{"id":957047,"name":"On or near Sussex Gardens"},"longitude":"-0.173544"},"context":"","outcome_status":null,"persistent_id":"","id":47905247,"location_subtype":"","month":"2016-03"},{"category":"anti-social-behaviour","location_type":"Force","location":{"latitude":"51.514721","street":{"id":957047,"name":"On or near Sussex Gardens"},"longitude":"-0.173544"},"context":"","outcome_status":null,"persistent_id":"","id":47905248,"location_subtype":"","month":"2016-03"},{"category":"anti-social-behaviour","location_type":"Force","location":{"latitude":"51.514721","street":{"id":957047,"name":"On or near Sussex Gardens"},"longitude":"-0.173544"},"context":"","outcome_status":null,"persistent_id":"","id":47905251,"location_subtype":"","month":"2016-03"},{"category":"anti-social-behaviour","location_type":"Force","location":{"latitude":"51.517199","street":{"id":957081,"name":"On or near Praed Street"},"longitude":"-0.172739"},"context":"","outcome_status":null,"persistent_id":"","id":47905259,"location_subtype":"","month":"2016-03"},{"category":"anti-social-behaviour","location_type":"Force","location":{"latitude":"51.516061","street":{"id":957059,"name":"On or near London Mews"},"longitude":"-0.174139"},"context":"","outcome_status":null,"persistent_id":"","id":47905261,"location_subtype":"","month":"2016-03"},{"category":"anti-social-behaviour","location_type":"Force","location":{"latitude":"51.516061","street":{"id":957059,"name":"On or near London Mews"},"longitude":"-0.174139"},"context":"","outcome_status":null,"persistent_id":"","id":47905262,"location_subtype":"","month":"2016-03"},{"category":"anti-social-behaviour","location_type":"Force","location":{"latitude":"51.517545","street":{"id":957089,"name":"On or near Rainsford Street"},"longitude":"-0.169554"},"context":"","outcome_status":null,"persistent_id":"","id":47903078,"location_subtype":"","month":"2016-03"},{"category":"anti-social-behaviour","location_type":"Force","location":{"latitude":"51.519657","street":{"id":960342,"name":"On or near Shopping Area"},"longitude":"-0.168849"},"context":"","outcome_status":null,"persistent_id":"","id":47903072,"location_subtype":"","month":"2016-03"},{"category":"anti-social-behaviour","location_type":"Force","location":{"latitude":"51.519657","street":{"id":960342,"name":"On or near Shopping Area"},"longitude":"-0.168849"},"context":"","outcome_status":null,"persistent_id":"","id":47903069,"location_subtype":"","month":"2016-03"},{"category":"anti-social-behaviour","location_type":"Force","location":{"latitude":"51.519657","street":{"id":960342,"name":"On or near Shopping Area"},"longitude":"-0.168849"},"context":"","outcome_status":null,"persistent_id":"","id":47903066,"location_subtype":"","month":"2016-03"},{"category":"anti-social-behaviour","location_type":"Force","location":{"latitude":"51.516061","street":{"id":957059,"name":"On or near London Mews"},"longitude":"-0.174139"},"context":"","outcome_status":null,"persistent_id":"","id":47900846,"location_subtype":"","month":"2016-03"},{"category":"anti-social-behaviour","location_type":"Force","location":{"latitude":"51.521463","street":{"id":960338,"name":"On or near Lisson Street"},"longitude":"-0.168215"},"context":"","outcome_status":null,"persistent_id":"","id":47903063,"location_subtype":"","month":"2016-03"},{"category":"anti-social-behaviour","location_type":"Force","location":{"latitude":"51.519392","street":{"id":960324,"name":"On or near Harbet Road"},"longitude":"-0.170907"},"context":"","outcome_status":null,"persistent_id":"","id":47905203,"location_subtype":"","month":"2016-03"},{"category":"anti-social-behaviour","location_type":"Force","location":{"latitude":"51.520712","street":{"id":960340,"name":"On or near Burne Street"},"longitude":"-0.169067"},"context":"","outcome_status":null,"persistent_id":"","id":47903059,"location_subtype":"","month":"2016-03"},{"category":"anti-social-behaviour","location_type":"Force","location":{"latitude":"51.516296","street":{"id":957037,"name":"On or near Cambridge Square"},"longitude":"-0.168437"},"context":"","outcome_status":null,"persistent_id":"","id":47903048,"location_subtype":"","month":"2016-03"},{"category":"anti-social-behaviour","location_type":"Force","location":{"latitude":"51.557317","street":{"id":968429,"name":"On or near Elphinstone Street"},"longitude":"-0.100978"},"context":"","outcome_status":null,"persistent_id":"","id":47882998,"location_subtype":"","month":"2016-03"},{"category":"anti-social-behaviour","location_type":"Force","location":{"latitude":"51.514915","street":{"id":957091,"name":"On or near Southwick Place"},"longitude":"-0.169241"},"context":"","outcome_status":null,"persistent_id":"","id":47903045,"location_subtype":"","month":"2016-03"},{"category":"anti-social-behaviour","location_type":"Force","location":{"latitude":"51.519227","street":{"id":960466,"name":"On or near Cabbell Street"},"longitude":"-0.167858"},"context":"","outcome_status":null,"persistent_id":"","id":47903039,"location_subtype":"","month":"2016-03"},{"category":"anti-social-behaviour","location_type":"Force","location":{"latitude":"51.513630","street":{"id":956995,"name":"On or near Craven Hill Mews"},"longitude":"-0.180866"},"context":"","outcome_status":null,"persistent_id":"","id":47900992,"location_subtype":"","month":"2016-03"},{"category":"bicycle-theft","location_type":"Force","location":{"latitude":"51.491865","street":{"id":950459,"name":"On or near Further\/higher Educational Building"},"longitude":"-0.214014"},"context":"","outcome_status":{"category":"Under investigation","date":"2016-03"},"persistent_id":"eda6b232211c773e1e6ae8ebb4a7f62f96e272198ea56048d34c84c50b86e26d","id":47917883,"location_subtype":"","month":"2016-03"},{"category":"bicycle-theft","location_type":"Force","location":{"latitude":"51.501964","street":{"id":952715,"name":"On or near Parking Area"},"longitude":"-0.194687"},"context":"","outcome_status":{"category":"Under investigation","date":"2016-03"},"persistent_id":"a0e4f3045558d2a7768cb6e2df2548091c53c58c2bfefabead7bec711bd4661e","id":47952890,"location_subtype":"","month":"2016-03"},{"category":"bicycle-theft","location_type":"Force","location":{"latitude":"51.564900","street":{"id":971884,"name":"On or near Tauheed Close"},"longitude":"-0.093375"},"context":"","outcome_status":{"category":"Under investigation","date":"2016-03"},"persistent_id":"232365fe8eb79f41b0e7324328f51a0db48d193c5e4c6132941e45f562d1bc6f","id":47924962,"location_subtype":"","month":"2016-03"},{"category":"bicycle-theft","location_type":"Force","location":{"latitude":"51.516700","street":{"id":957054,"name":"On or near Praed Mews"},"longitude":"-0.172989"},"context":"","outcome_status":{"category":"Under investigation","date":"2016-03"},"persistent_id":"b4f697ab1899eb58984a36dc130e0663ddb7e1c5de829591b1c39f4bb896dc55","id":47996922,"location_subtype":"","month":"2016-03"},{"category":"bicycle-theft","location_type":"Force","location":{"latitude":"51.516700","street":{"id":957054,"name":"On or near Praed Mews"},"longitude":"-0.172989"},"context":"","outcome_status":{"category":"Under investigation","date":"2016-03"},"persistent_id":"c6a817993f6cd76321d7c01deaf3b0322c516b6fc66c889201e5a917e3946ecf","id":47945115,"location_subtype":"","month":"2016-03"},{"category":"bicycle-theft","location_type":"Force","location":{"latitude":"51.500269","street":{"id":952691,"name":"On or near Phillimore Walk"},"longitude":"-0.196742"},"context":"","outcome_status":{"category":"Under investigation","date":"2016-03"},"persistent_id":"9c6ceba2fbc127f3f65dab8ef51e2d4f4fadfc268fe294eb66ddaebb92be2fc5","id":47935958,"location_subtype":"","month":"2016-03"},{"category":"bicycle-theft","location_type":"Force","location":{"latitude":"51.600150","street":{"id":981918,"name":"On or near Lawrence Avenue"},"longitude":"-0.037115"},"context":"","outcome_status":{"category":"Under investigation","date":"2016-03"},"persistent_id":"fe112a0b37bc48bfe9e6b98989762ae68b27e4c8cb1a9d048fcdda922d100918","id":47954850,"location_subtype":"","month":"2016-03"},{"category":"bicycle-theft","location_type":"Force","location":{"latitude":"51.522633","street":{"id":960359,"name":"On or near Marylebone Road"},"longitude":"-0.155079"},"context":"","outcome_status":{"category":"Under investigation","date":"2016-03"},"persistent_id":"6c9cf497f6bff785d215889959bd2dceb5630e48a85ba2b299bec142accb958d","id":48002211,"location_subtype":"","month":"2016-03"},{"category":"bicycle-theft","location_type":"Force","location":{"latitude":"51.537113","street":{"id":964951,"name":"On or near Granary Street"},"longitude":"-0.130788"},"context":"","outcome_status":{"category":"Under investigation","date":"2016-03"},"persistent_id":"d0cc075ddab594ce3746443ffbdd9a3aa68894b10e508801e24f1238df5a8a83","id":47988092,"location_subtype":"","month":"2016-03"},{"category":"bicycle-theft","location_type":"Force","location":{"latitude":"51.491764","street":{"id":950436,"name":"On or near Gliddon Road"},"longitude":"-0.213284"},"context":"","outcome_status":{"category":"Under investigation","date":"2016-03"},"persistent_id":"8246545c905fd9bd97380bf20abeacac2f6c2100412d9d54e7049a5f366dc6d3","id":47995617,"location_subtype":"","month":"2016-03"},{"category":"bicycle-theft","location_type":"Force","location":{"latitude":"51.587825","street":{"id":977905,"name":"On or near Ferry Lane"},"longitude":"-0.056803"},"context":"","outcome_status":{"category":"Investigation complete; no suspect identified","date":"2016-03"},"persistent_id":"018b950e6b4f0878e8c287a4c3a39d6f2f88489727cc28e6a8fda87d86254a91","id":47979296,"location_subtype":"","month":"2016-03"},{"category":"bicycle-theft","location_type":"Force","location":{"latitude":"51.492457","street":{"id":950113,"name":"On or near Edith Road"},"longitude":"-0.210995"},"context":"","outcome_status":{"category":"Under investigation","date":"2016-03"},"persistent_id":"ce30941eaac23bfe9190d97254656efa4f0a47c3d9aef26cc60e5d672c3e27af","id":48006688,"location_subtype":"","month":"2016-03"},{"category":"bicycle-theft","location_type":"Force","location":{"latitude":"51.560851","street":{"id":971859,"name":"On or near Chatterton Mews"},"longitude":"-0.099287"},"context":"","outcome_status":{"category":"Under investigation","date":"2016-03"},"persistent_id":"3c8f1113b147d3401098facde4f02fe4960c8b8fc94bc9d6252672cfaf437c83","id":47927567,"location_subtype":"","month":"2016-03"},{"category":"bicycle-theft","location_type":"Force","location":{"latitude":"51.578687","street":{"id":975180,"name":"On or near Elm Park Avenue"},"longitude":"-0.067079"},"context":"","outcome_status":{"category":"Under investigation","date":"2016-03"},"persistent_id":"9b8d8368f86fb8ab91e23dc212980ddfa990924e8fe8ccbb9ff46adec9f38a97","id":47976859,"location_subtype":"","month":"2016-03"},{"category":"bicycle-theft","location_type":"Force","location":{"latitude":"51.564900","street":{"id":971884,"name":"On or near Tauheed Close"},"longitude":"-0.093375"},"context":"","outcome_status":{"category":"Under investigation","date":"2016-03"},"persistent_id":"ead091bf6c5f4a7eed57b55f5ba21987d1421a8dcaf5fc1d88afda7ba10a90ab","id":47919307,"location_subtype":"","month":"2016-03"},